[{"userID":1,"type":3,"name":"서연의집","talk":"제주 카페 건축학개론 촬영지로 유명한 서연의집","phone":"064-764-7894","lat":33.2694227,"lng":126.6555655,"address":"제주 서귀포시 남원읍 위미해안로 86"},
{"userID":1,"type":3,"name":"카페세바","talk":"독특한분위기, 분위기깡패","phone":"","lat":33.5132669,"lng":126.706023,"address":"제주 제주시 조천읍 선흘동2길 20-7"},
{"userID":1,"type":3,"name":"카페델문도","talk":"맛있는 베이커리가 있는 함덕 델문도 카페","phone":"064-702-0007","lat":33.5437282,"lng":126.6686836,"address":"제주 제주시 조천읍 조함해안로 519-10"},
{"userID":1,"type":3,"name":"오드랑베이커리","talk":"빵지순례에 빠질 수 없는 마농바게트 마늘빵","phone":"064-784-5404","lat":33.5421168,"lng":126.6716378,"address":"제주 제주시 조천읍 조함해안로 552-3"},
{"userID":1,"type":3,"name":"대수길다방","talk":"제주 동쪽 평대리 조용한 카페","phone":"010-7469-7313","lat":33.533219,"lng":126.8425051,"address":"제주 제주시 구좌읍 해맞이해안로 1202"},
{"userID":1,"type":3,"name":"모뉴에트","talk":"제주 동쪽 끝 마을 종달리. 그 안에 평생을 음악과 함께한 아빠의 감성을","phone":"010-5746-5316","lat":33.4914842,"lng":126.9021534,"address":"제주 제주시 구좌읍 종달동길 23"},
{"userID":1,"type":3,"name":"이쁜카페맛노노","talk":"제주도 애월 소길리에서 만나는 제주감성 레트로카페","phone":"0507-1318-6516","lat":33.4397329,"lng":126.3799463,"address":"제주 제주시 애월읍 소길리 652-1"},
{"userID":1,"type":3,"name":"도로록","talk":"가는 길에 지나치기 쉬우니 주의하세용! 예약은 그 전날, 당일 아침에 하시는 걸 추천합니당","phone":"010-6336-8253","lat":33.5427411,"lng":126.6628808,"address":"제주 제주시 조천읍 신북로 494-2"},
{"userID":1,"type":3,"name":"춘자네쇠소깍","talk":"천혜향 밭은 직접 운영하고 있어 비교적 착한 금액으로 만나볼 수 있는 달달한 천혜향!","phone":"064-732-1402","lat":33.2521875,"lng":126.6230547,"address":"제주 서귀포시 하효동 995"},
{"userID":1,"type":3,"name":"SALON de LAVANT","talk":"입소문 난 팬케이크가 있는 애월읍 카페","phone":"0507-1328-3708","lat":33.457824,"lng":126.3489424,"address":"제주 제주시 애월읍 하가로 146-9"},
{"userID":1,"type":3,"name":"구좌상회","talk":"구좌 당근케이크 맛있는 제주도 월정리 감성카페","phone":"010-6600-6648","lat":33.556184,"lng":126.7927141,"address":"제주 제주시 구좌읍 월정리 417"},
{"userID":1,"type":3,"name":"망고레이 천지연폭포점","talk":"제주 망고레이 필리핀 망고카페 100%망고쉐이 크 동남아 필리핀 망고카페 수제 코코넛아이스크 림","phone":"064-733-5425","lat":33.2432546,"lng":126.5597067,"address":"제주 서귀포시 남성중로 2-3 1층"},
{"userID":1,"type":3,"name":"망고레이 섭지코지점","talk":"생망고를 갈아주는 섭지코지 카페","phone":"0507-1421-6006","lat":33.436456,"lng":126.9206559,"address":"제주 서귀포시 성산읍 신양로 102"},
{"userID":1,"type":3,"name":"망고레이제주함덕점","talk":"재미있는, 분위기있는, 이국적, 화려한","phone":"064-784-2443","lat":33.5425606,"lng":126.6668342,"address":"제주 제주시 조천읍 조함해안로 504 골든튤립제주함덕호텔"},
{"userID":1,"type":3,"name":"버터모닝","talk":"제주 애월 새벽부터 줄 서는 빵집","phone":"064-712-0461","lat":33.464269,"lng":126.4229729,"address":"제주 제주시 애월읍 하광로 279"},
{"userID":1,"type":3,"name":"망고레이 하귀본점","talk":"이색 디저트 가득한 제주도 애월 카페","phone":"0507-1404-2441","lat":33.4840626,"lng":126.4160113,"address":"제주 제주시 애월읍 하귀9길 34"},
{"userID":1,"type":3,"name":"제주 하멜","talk":"제주도 가면 무조건 사야하는 하멜 치즈 케이크","phone":"0507-1311-1653","lat":33.4785288,"lng":126.4762115,"address":"제주 제주시 노형2길 51-3"},
{"userID":1,"type":2,"name":"쇠소깍","talk":"쇠소깍 테우타러 바닷가로 내려가는 길 바로 맞 은편에 위치한 쇠소깍휴게소입니다","phone":"064-732-9998","lat":33.2524652,"lng":126.6243979,"address":"제주 서귀포시 남원읍 하례로 378"},
{"userID":1,"type":2,"name":"이중섭거리","talk":"재미있는, 분위기좋은, 작은공간","phone":"","lat":33.2454679,"lng":126.5642875,"address":"제주 서귀포시 서귀동 512-1 이중섭생가"},
{"userID":1,"type":2,"name":"꽃이다","talk":"꽃이다입니다. 외부장식 및 수업으로 매장 영업 시간이 유동적일 수 있습니다.","phone":"010-5640-7062","lat":33.2599722,"lng":126.5227705,"address":"제주 서귀포시 서호동 615"},
{"userID":1,"type":2,"name":"열기구","talk":"본 상품은 열기구 비행 상품이 아닙니다. 방탄소 년단의 화보를 촬영한 곳에서 바로 그 열기구와 함께 사진도 찍고 방탄의 자취를","phone":"070-4400-3300","lat":33.4538358,"lng":126.6577122,"address":"제주 제주시 조천읍 남조로 2109-36"},
{"userID":1,"type":2,"name":"송당나무","talk":"인간극장에 소개된 제주 온실 카페","phone":"010-9364-2819","lat":33.4769705,"lng":126.7890289,"address":"제주 제주시 구좌읍 송당5길 68-140"},
{"userID":1,"type":2,"name":"제주선흘리벵뒤굴","talk":"세계자연유산센터 거문오름 국제트레킹대회","phone":"","lat":33.475338,"lng":126.717838,"address":"제주 제주시 조천읍 선흘리 365-1"},
{"userID":1,"type":2,"name":"바다보석","talk":"제주에서 찾은 조개들로 만든 악세사리와 바다,제주를 모티브로한 다양한 상품을 제작하는 브랜드","phone":"064-762-5576","lat":33.245287,"lng":126.5641346,"address":"제주 서귀포시 서귀동 480-6"},
{"userID":1,"type":2,"name":"너는 파라다이스 길리","talk":"제주도 동쪽 월정리마을에 있습니다. 월정리해변 에서 마을 안쪽으로 올라오시다보면 찾을수 있습 니다.","phone":"0507-1417-2208","lat":33.5566899,"lng":126.7937218,"address":"제주 제주시 구좌읍 월정1길 65 너는파라다이스길리"},
{"userID":1,"type":2,"name":"산호상점","talk":"제주 성산읍에 위치한 편집 소품샵입니다. 외관 은 돌창고로 되어있어 제주의 옛 정서를 느낄 수 있으며","phone":"064-782-7320","lat":33.4450651,"lng":126.887704,"address":"제주 서귀포시 성산읍 수산리 669-1"},
{"userID":1,"type":2,"name":"일몰","talk":"차귀도는 면적 0.16km2로 제주시 한경면 고산리에 딸린 무인도이다.","phone":"064-772-3224","lat":33.4598799,"lng":126.8326841,"address":"제주 제주시 이호일동"},
{"userID":1,"type":2,"name":"표선해수욕장","talk":"제주특별자치도 서귀포시 표선면 표선리에 있는 해수욕장.","phone":"064-760-4992","lat":33.326027,"lng":126.8403326,"address":"제주 서귀포시 표선면 표선리 40-32"},
{"userID":1,"type":2,"name":"신천목장","talk":"좋아요 맛있어요 굿","phone":"","lat":33.3553616,"lng":126.8657117,"address":"제주 서귀포시 성산읍 신천리 5"},
{"userID":1,"type":2,"name":"벨롱장","talk":"주말의 낮과 밤을 책임질 <제주 플리마켓>","phone":"","lat":33.5280506,"lng":126.8570312,"address":"제주 제주시 구좌읍 세화리 1500-63"},
{"userID":1,"type":2,"name":"도르멍 쉼팡","talk":"다양한 인센스, 감성소품,별이굿즈를 만나보실 수 있는 특별한 소품샵이에요 :)","phone":"0507-1359-7868","lat":33.5394323,"lng":126.8361858,"address":"제주 제주시 구좌읍 한동리 8"},
{"userID":1,"type":2,"name":"서쪽가게","talk":"너무 예쁜 반지랑 목걸이 엄마랑 세트로 득템했어요!! 가게 분위기가 예뻐요","phone":"064-796-8178","lat":33.3933598,"lng":126.2406285,"address":"제주 제주시 한림읍 협재리 1751-6"},
{"userID":1,"type":2,"name":"궷물오름","talk":"궷물오름, 높지 않아서 걷기 좋은 제주 오름","phone":"","lat":33.3969524,"lng":126.4059386,"address":"제주 제주시 애월읍 유수암리"},
{"userID":1,"type":2,"name":"한담해안산책로","talk":"제주도 애월 카페거리 한담해안산책로 주차","phone":"","lat":33.4590382,"lng":126.3105111,"address":"제주 제주시 애월읍 곽지리 1359"},
{"userID":1,"type":2,"name":"안덕계곡","talk":"제주 숨은 명소","phone":"064-794-9001","lat":33.257308,"lng":126.352813,"address":"제주 서귀포시 안덕면 감산리 1946"},
{"userID":1,"type":2,"name":"영주산","talk":"제주5대 명산 중 하나 영주산 오랫만의 서귀포 나들이","phone":"064-760-4413","lat":33.4045664,"lng":126.7962401,"address":"제주 서귀포시 표선면"},
{"userID":1,"type":2,"name":"명도암정식","talk":"오늘 만든 따끈따끈한 반찬들이 맛이 참 좋았어요 ㅎㅎ 배부른데 건강식으로 챙겨먹은것같아서 뿌듯하고 기분좋네용^^","phone":"064-723-5254","lat":33.4676736,"lng":126.6105981,"address":"제주 제주시 명림로 218"},
{"userID":1,"type":2,"name":"절물오름","talk":"제주 오름 추천 절물오름,아이와 함께!","phone":"","lat":33.4338793,"lng":126.6267088,"address":"제주 제주시 봉개동"},
{"userID":1,"type":2,"name":"비양봉","talk":"한림읍 협재리 앞바다의 비양도에 있는 기생화산으로 비양도는 예전에 대나무가 많아서 대섬(竹島)이라고도 불리었다.","phone":"","lat":33.4089509,"lng":126.226966,"address":"제주 제주시 한림읍 협재리 산100-1"},
{"userID":1,"type":2,"name":"꼭가야해","talk":"3개의 굼부리가 있는 것이 가장 큰 특징이다. 크고 작은 여러 개의 봉우리가 매끄러운 등성이로 연결되어 한 산체를 이룬다.","phone":"","lat":33.386508,"lng":126.7516,"address":"제주 서귀포시 표선면 가시리 산62"},
{"userID":1,"type":2,"name":"동검은이오름등산로입구","talk":"202112 겨울 제주여행 - 제주 동백핫플레이스 토평동 그리고","phone":"","lat":33.441257,"lng":126.794535,"address":"제주 제주시 구좌읍 송당리"},
{"userID":1,"type":2,"name":"도두봉","talk":"도두봉은 제주공항 북쪽 도두동 해안가에 위치해 있으며, 제주도내에서 관입암을 관찰할 수 있는 대표적인 곳이다.","phone":"","lat":33.5079851,"lng":126.4683497,"address":"제주 제주시 도두일동 산1"},
{"userID":1,"type":2,"name":"섭지코지","talk":"제주에 첫발을 디딜 때, 운이 좋다면 가장 먼저 눈에 띄는 것은 멀리 한라산이 거대한 덩치를 뽐내며 웅장한 자태로 솟아있는 모습이다.","phone":"064-782-2810","lat":33.4237681,"lng":126.93078,"address":"제주 서귀포시 성산읍 고성리"},
{"userID":1,"type":2,"name":"수월봉","talk":"","phone":"","lat":33.2947703,"lng":126.163109,"address":"제주 제주시 한경면"},
{"userID":1,"type":2,"name":"군산오름","talk":"환상적인 360도 파노라마 뷰 오름.","phone":"","lat":33.2531143,"lng":126.3702238,"address":"제주 서귀포시 안덕면 창천리 564"},
{"userID":1,"type":2,"name":"지미봉","talk":"종달마을 입구 동북방향에 있는 오름으로 산위 등성이는 원뿔모양의 동쪽 봉우리가 주봉","phone":"","lat":33.4993137,"lng":126.9024391,"address":"제주 제주시 구좌읍 종달리 산3-1"},
{"userID":1,"type":2,"name":"백약이오름","talk":"","phone":"064-760-4451","lat":33.4369221,"lng":126.7896208,"address":"제주 서귀포시 표선면 성읍리 산1"},
{"userID":1,"type":2,"name":"산굼부리","talk":"400m 고지에 발달한 기생화산의 분화구. 천연기념물 제263호","phone":"064-783-9900","lat":33.4295758,"lng":126.6949199,"address":"제주 제주시 조천읍 교래리 산38"},
{"userID":1,"type":2,"name":"서우봉","talk":"","phone":"064-783-8014","lat":33.5458412,"lng":126.6775855,"address":"제주 제주시 조천읍 함덕리 169-1"},
{"userID":1,"type":2,"name":"동백동산","talk":"선흘리 동쪽에 있는 넓은 면적의 상록활엽수 천연림으로, 20여 년생 동백나무 10여만 그루가 숲을 이루고 있어","phone":"064-784-9446","lat":33.517058,"lng":126.717564,"address":"제주 제주시 조천읍 선흘리 산12"},
{"userID":1,"type":2,"name":"정방폭포","talk":"","phone":"064-733-1530","lat":33.2448143,"lng":126.5716427,"address":"제주 서귀포시 동홍동 278"},
{"userID":1,"type":2,"name":"광치기해변","talk":"","phone":"","lat":33.4518011,"lng":126.923722,"address":"제주 서귀포시 성산읍 고성리 224-33"},
{"userID":1,"type":2,"name":"돈내코유원지","talk":"","phone":"064-733-1584","lat":33.3011465,"lng":126.584796,"address":"제주 서귀포시 상효동 1503"},
{"userID":1,"type":2,"name":"황우지해안","talk":"","phone":"","lat":33.241454,"lng":126.5503757,"address":"제주 서귀포시 서홍동  766-1"},
{"userID":1,"type":2,"name":"협재해수욕장","talk":"","phone":"064-728-3981","lat":33.3943225,"lng":126.2398901,"address":"제주 제주시 한림읍 협재리 2497-1"},
{"userID":1,"type":2,"name":"함덕해수욕장","talk":"","phone":"064-728-3989","lat":33.5431083,"lng":126.6696925,"address":"제주 제주시 조천읍 조함해안로 525"},
{"userID":1,"type":2,"name":"김녕해수욕장","talk":"","phone":"064-728-3988","lat":33.5577827,"lng":126.7594902,"address":"제주 제주시 구좌읍 김녕리"},
{"userID":1,"type":2,"name":"새별오름","talk":"","phone":"","lat":33.3662543,"lng":126.3577289,"address":"제주 제주시 애월읍 봉성리 산59-8"},
{"userID":1,"type":2,"name":"금오름","talk":"","phone":"","lat":33.3545713,"lng":126.3058395,"address":"제주 제주시 한림읍 금악리 산1-1"},
{"userID":1,"type":2,"name":"다랑쉬오름","talk":"","phone":"","lat":33.4776851,"lng":126.8215358,"address":"제주 제주시 구좌읍 세화리"},
{"userID":1,"type":2,"name":"도민상회","talk":"도민상회본점은 참숯직화구이로 유명한 한림맛집","phone":"0507-1401-0795","lat":33.4133234,"lng":126.2602659,"address":"제주 제주시 한림읍 한림리 1590-6"},
{"userID":1,"type":2,"name":"한라산둘레길(사려니숲길)","talk":"","phone":"064-900-8800","lat":33.4013167,"lng":126.6462889,"address":"제주 제주시 조천읍 교래리 산137-1"},
{"userID":1,"type":1,"name":"섶섬할망카페","talk":"제주 서귀포 바다뷰 경치 좋은 해물라면 맛집","phone":"064-733-8673","lat":33.238015,"lng":126.6022836,"address":"제주 서귀포시 보목로64번길 11"},
{"userID":1,"type":1,"name":"용이식당","talk":"두루치기가 푸짐한 용이식당","phone":"064-732-7892","lat":33.2511023,"lng":126.5604761,"address":"제주 서귀포시 천지로 40"},
{"userID":1,"type":1,"name":"채점석베이커리카페","talk":"기능장이 만든 빵","phone":"064-739-0033","lat":33.2485001,"lng":126.5141914,"address":"제주 서귀포시 서호남로32번길 29"},
{"userID":1,"type":1,"name":"뜨랑국수","talk":"","phone":"064-739-4999","lat":33.2582604,"lng":126.5106028,"address":"제주 서귀포시 신동로67번길 53"},
{"userID":1,"type":1,"name":"시스터필드","talk":"","phone":"064-739-2225","lat":33.2490358,"lng":126.5073141,"address":"제주 서귀포시 월드컵로 8"},
{"userID":1,"type":1,"name":"고사리삼겹살 성읍칠십리식당","talk":"감귤나무로 초벌한 제주산 흑돼지 오겹살","phone":"064-787-0911","lat":33.389215,"lng":126.801263,"address":"제주 서귀포시 표선면 성읍정의현로 74"},
{"userID":1,"type":1,"name":"해물라면집","talk":"제주여행 협재해변 쪼꼴락상회에서 푸짐한 해물라면","phone":"010-4653-1666","lat":33.3938429,"lng":126.2414967,"address":"제주 제주시 한림읍 협재리 1750"},
{"userID":1,"type":1,"name":"백반집","talk":"아이들과 가기좋은 애월 한정식집","phone":"064-799-4939","lat":33.4516211,"lng":126.3084657,"address":"제주 제주시 애월읍 곽지리 1540-2"},
{"userID":1,"type":1,"name":"건강한집...","talk":"제주여행 외도맛집 정갈한 일본가정식","phone":"064-901-5635","lat":33.4884512,"lng":126.4304301,"address":"제주 제주시 외도1동 498-3"},
{"userID":1,"type":1,"name":"옥돔 고등어","talk":"","phone":"064-783-5481","lat":33.5261627,"lng":126.8560007,"address":"제주 제주시 구좌읍 세화리 3644-8"},
{"userID":1,"type":1,"name":"수제도시락","talk":"존예존맛 느낌있는 도시락","phone":"010-8384-1068","lat":33.5146737,"lng":126.5237277,"address":"제주 제주시 삼도2동 22-3"},
{"userID":1,"type":1,"name":"1인화로구이","talk":"","phone":"0507-1443-4422","lat":33.2483183,"lng":126.2843805,"address":"제주 서귀포시 대정읍 안성리 1562-6"},
{"userID":1,"type":1,"name":"한라식당","talk":"고사리 흑돼지가 있는 제주 성읍 맛집","phone":"0507-1404-2026","lat":33.3843119,"lng":126.8017838,"address":"제주 서귀포시 표선면 성읍리 855-3"},
{"userID":1,"type":1,"name":"떡하니 문어떡볶이","talk":"","phone":"0507-1472-1566","lat":33.5538606,"lng":126.8078437,"address":"제주 제주시 구좌읍 행원로9길 9-5"},
{"userID":1,"type":1,"name":"대게고로케 월정점","talk":"","phone":"064-752-2494","lat":33.5552095,"lng":126.7945361,"address":"제주 제주시 구좌읍 월정3길 50"},
{"userID":1,"type":1,"name":"소곱에","talk":"월정리해변근처 해물라면과 바삭바삭한 해물파전","phone":"064-783-0565","lat":33.5561678,"lng":126.7942188,"address":"제주 제주시 구좌읍 월정3길 53-9"},
{"userID":1,"type":1,"name":"버드나무집","talk":"농림축산식품부 제공 안심식당","phone":"064-782-9992","lat":33.5412839,"lng":126.6673866,"address":"제주 제주시 조천읍 신북로 540"},
{"userID":1,"type":1,"name":"오조해녀의집","talk":"농림축산식품부 제공 안심식당","phone":"064-784-7789","lat":33.4698179,"lng":126.92225,"address":"제주 서귀포시 성산읍 오조리 3"},
{"userID":1,"type":1,"name":"해녀식당","talk":"성산일출봉 근처맛집 해녀식당 갯마을 시원한 물회","phone":"064-784-5755","lat":33.4679193,"lng":126.9155857,"address":"제주 서귀포시 성산읍 오조리 343"},
{"userID":1,"type":1,"name":"춘자멸치국수","talk":"춘자네쌀롱으로 불리는 제주도 멸치국수","phone":"064-787-3124","lat":33.326468,"lng":126.8330006,"address":"제주 서귀포시 표선면 표선동서로 255 광수네야식"},
{"userID":1,"type":1,"name":"경미네집","talk":"해물이 푸짐하게 들어간 해물라면","phone":"0507-1326-2671","lat":33.4613222,"lng":126.9334198,"address":"제주 서귀포시 성산읍 일출로 259"},
{"userID":1,"type":1,"name":"톰톰카레","talk":"이효리도 다녀간 반반카레집","phone":"0507-1461-1535","lat":33.537337,"lng":126.8372674,"address":"제주 제주시 구좌읍 해맞이해안로 1112"},
{"userID":1,"type":1,"name":"해녀촌","talk":"맛있는 회국수를 먹을수 있는 제주도 구좌읍맛집","phone":"064-783-5438","lat":33.55355,"lng":126.709913,"address":"제주 제주시 구좌읍 동복로 33"},
{"userID":1,"type":1,"name":"가시아방국수","talk":"성산유채꽃 보고 두툼한 돔베고기국수","phone":"064-783-0987","lat":33.4383752,"lng":126.9183079,"address":"제주 서귀포시 성산읍 고성리 528 가시아방"},
{"userID":1,"type":1,"name":"칠돈가 중문점","talk":"농림축산식품부 제공 안심식당","phone":"0507-1431-1356","lat":33.2574756,"lng":126.4144427,"address":"제주 서귀포시 중문관광로 8"},
{"userID":1,"type":1,"name":"고집돌우럭 중문점","talk":"고집돌우럭 중문 엄마가 만족한 맛집","phone":"0507-1408-1540","lat":33.2579896,"lng":126.4166817,"address":"제주 서귀포시 일주서로 879"},
{"userID":1,"type":1,"name":"오전열한시","talk":"소담스러운 제주 한상","phone":"0507-1307-5576","lat":33.2667633,"lng":126.3942623,"address":"제주 서귀포시 상예로 248"},
{"userID":1,"type":1,"name":"까망돼지","talk":"명이나물에 싸먹는 근고기","phone":"0507-1316-6543","lat":33.2574169,"lng":126.4134292,"address":"제주 서귀포시 색달중앙로 21 여미지하우스"},
{"userID":1,"type":1,"name":"임순이네밥집","talk":"고사리 해장국 덕후가 인정한 곽지 맛집","phone":"064-799-3919","lat":33.4489716,"lng":126.3041853,"address":"제주 제주시 애월읍 곽지리 1581-7"},
{"userID":1,"type":1,"name":"쌍둥이횟집본점","talk":"농림축산식품부 제공 안심식당","phone":"064-762-0478","lat":33.2465957,"lng":126.5629028,"address":"제주 서귀포시 중정로62번길 14 쌍둥이횟집"},
{"userID":1,"type":1,"name":"영실국수","talk":"영실국수 서귀포를 대표하는 3대 고기국수 맛있는 집","phone":"0507-1467-8370","lat":33.2544138,"lng":126.4583693,"address":"제주 서귀포시 일주서로 470"},
{"userID":1,"type":1,"name":"남원바당","talk":"농림축산식품부 제공 안심식당","phone":"064-755-3388","lat":33.5030572,"lng":126.5428286,"address":"제주 제주시 천수로8길 7"},
{"userID":1,"type":1,"name":"호돌이식당","talk":"바다향 가득한 보말죽이랑 보말칼국수","phone":"064-796-8475","lat":33.4064511,"lng":126.2301894,"address":"제주 제주시 한림읍 비양도길 284"},
{"userID":1,"type":1,"name":"종달리엔엄마식당","talk":"혼술하기에도 좋은 심야식당","phone":"0507-1411-5768","lat":33.4918325,"lng":126.898024,"address":"제주 제주시 구좌읍 종달리 1935-1"},
{"userID":1,"type":1,"name":"블루사이공","talk":"저렴한 가격으로 푸짐한 양의 베트남음식을 맛볼 수 있는 곳","phone":"064-742-8621","lat":33.4568963,"lng":126.407811,"address":"제주 제주시 애월읍 중산간서로 6333 좌측 블루사이공"},
{"userID":1,"type":1,"name":"모리노아루요","talk":"제주 숲 속 서양식당","phone":"064-799-4253","lat":33.4194062,"lng":126.4018229,"address":"제주 제주시 애월읍 하소로 769-58"},
{"userID":1,"type":1,"name":"포도원흑돼지","talk":"농림축산식품부 제공 안심식당","phone":"064-745-0880","lat":33.468144,"lng":126.484671,"address":"제주 제주시 1100로 3155"},
{"userID":1,"type":1,"name":"맛있는폴부엌","talk":"옆 동네 저지리의 시골 레스토랑","phone":"0507-1408-1624","lat":33.3208391,"lng":126.2651884,"address":"제주 제주시 한경면 저지리 2969-18"},
{"userID":1,"type":1,"name":"초밥군커피씨","talk":"초밥 크기가 얼굴만한 초밥집","phone":"064-903-1253","lat":33.5127785,"lng":126.5127614,"address":"제주 제주시 용담2동 359-25"},
{"userID":1,"type":1,"name":"코코마마 성산점","talk":"성산일출봉에 위치한 하와이안 씨푸드 레스토랑","phone":"0507-1305-5569","lat":33.4610411,"lng":126.9342913,"address":"제주 서귀포시 성산읍 일출로 258-11"},
{"userID":1,"type":1,"name":"제주어멍 통갈치","talk":"용담해안도로에 위치해 있는 통갈치조림 전문점","phone":"0507-1421-8299","lat":33.5116731,"lng":126.4841712,"address":"제주 제주시 용담삼동 2576-3"},
{"userID":1,"type":1,"name":"옛날국수집","talk":"멸치국수 가성비 맛집","phone":"064-711-8174","lat":33.4802677,"lng":126.4033116,"address":"제주 제주시 애월읍 하귀로 56"},
{"userID":1,"type":1,"name":"명진전복","talk":"돌솥밥으로 유명한 곳","phone":"064-782-9944","lat":33.5325353,"lng":126.850163,"address":"제주 제주시 구좌읍 평대리 515-28"},
{"userID":1,"type":1,"name":"평대스낵","talk":"수요미식회 제주도편에 나왔다는 떡볶이맛집","phone":"070-8825-3524","lat":33.5354744,"lng":126.8392538,"address":"제주 제주시 구좌읍 대수길 7"},
{"userID":1,"type":1,"name":"벵디","talk":"제주 월정리 인근을 대표하는 맛집","phone":"0507-1393-7842","lat":33.5377463,"lng":126.8371371,"address":"제주 제주시 구좌읍 해맞이해안로 1108"},
{"userID":1,"type":1,"name":"산포식당","talk":"성산일출봉 갈치조림 통통한 갈치구이","phone":"0507-1360-9217","lat":33.4451396,"lng":126.8996827,"address":"제주 서귀포시 성산읍 서성일로 1134"},
{"userID":1,"type":1,"name":"뽈살집서귀포점","talk":"농림축산식품부 제공 안심식당","phone":"064-763-6860","lat":33.250685,"lng":126.563151,"address":"제주 서귀포시 중정로91번길 37"},
{"userID":1,"type":1,"name":"노라바","talk":"제주도 애월해안도로 바다가 보이는 해물라면 맛집","phone":"064-772-1900","lat":33.4829555,"lng":126.3765198,"address":"제주 제주시 애월읍 구엄길 100"},
{"userID":1,"type":1,"name":"몬스터살롱","talk":"롱츄러스도 맛있는 애월맛집","phone":"0507-1414-5310","lat":33.4482513,"lng":126.3072,"address":"제주 제주시 애월읍 일주서로 6017"},
{"userID":1,"type":1,"name":"우진해장국","talk":"농림축산식품부 제공 안심식당","phone":"064-757-3393","lat":33.511525,"lng":126.5199625,"address":"제주 제주시 서사로 11"},
{"userID":1,"type":1,"name":"광명식당","talk":"원나잇푸드트립 오세득셰프도 반한 동문시장맛집","phone":"064-757-1872","lat":33.5121058,"lng":126.5280825,"address":"제주 제주시 일도일동 1103"},
{"userID":1,"type":1,"name":"제주돗","talk":"아이들이 신나게 뛰노는 흑돼지 근고기집","phone":"0507-1434-0506","lat":33.3331682,"lng":126.2308655,"address":"제주 제주시 한경면 조수2길 34"},
{"userID":1,"type":1,"name":"독개물항","talk":"조림과 뚝배기로 유명한 한림맛집","phone":"064-796-3966","lat":33.40189,"lng":126.251625,"address":"제주 제주시 한림읍 한림로 478"},
{"userID":1,"type":1,"name":"한림칼국수","talk":"보말칼국수가 유명한 한림맛집","phone":"070-8900-3339","lat":33.4156063,"lng":126.2615065,"address":"제주 제주시 한림읍 한림리 1328-15"},
{"userID":1,"type":1,"name":"협재해녀의집","talk":"해녀분들이 직접 잡은 싱싱한 해산물회","phone":"064-796-7773","lat":33.3988326,"lng":126.2438785,"address":"제주 제주시 한림읍 협재3길 19"},
{"userID":1,"type":1,"name":"면뽑는선생만두빚는아내","talk":"제주에서만 맛볼 수 있는 한우 수육 만두","phone":"064-796-4562","lat":33.3997353,"lng":126.2493576,"address":"제주 제주시 한림읍 옹포2길 10 아길라호텔 1층"},
{"userID":1,"type":1,"name":"사랑분식","talk":"떡볶이에 빠진 김밥","phone":"064-757-5058","lat":33.5124823,"lng":126.5278235,"address":"제주 제주시 동문로4길 12"},
{"userID":1,"type":1,"name":"모닥치기","talk":"푸짐하고 넉넉한 양의 분식집","phone":"0507-1345-5632","lat":33.4911065,"lng":126.5382334,"address":"제주 제주시 남광로2길 17"},
{"userID":1,"type":1,"name":"애월튀김간","talk":"무난무난했던 분식집","phone":"064-799-6351","lat":33.4643864,"lng":126.3197629,"address":"제주 제주시 애월읍 애월로 118"},
{"userID":1,"type":1,"name":"분식후경","talk":"성산쪽에 위치한 작은 분식집","phone":"0507-1379-2888","lat":33.4004628,"lng":126.9028507,"address":"제주 서귀포시 성산읍 온평포구로62번길 22-1"},
{"userID":1,"type":1,"name":"명랑스낵","talk":"신개념 종합분식점","phone":"0507-1344-4548","lat":33.409193,"lng":126.2587967,"address":"제주 제주시 한림읍 한림로 585 1층"},
{"userID":1,"type":1,"name":"슬슬슬로우","talk":"월정리 예약제로 운영하는 돔베라면맛집","phone":"010-9261-9284","lat":33.5562293,"lng":126.8069598,"address":"제주 제주시 구좌읍 행원로7길 23-8"},
{"userID":1,"type":1,"name":"놀맨","talk":"직접잡은 해물로 끓여주는 라면","phone":"064-799-3332","lat":33.4624776,"lng":126.3102122,"address":"제주 제주시 애월읍 애월로1길 24"},
{"userID":1,"type":3,"name":"카페사분의일","talk":"노형 근처 해안동에 있는 엔틱한 감성의 드립커피","phone":"064-745-6935","lat":33.4463477,"lng":126.4813365,"address":"제주특별자치도 제주시 해안동 29-4"},
{"userID":1,"type":3,"name":"우무","talk":"제주 해녀가 채취한 우뭇가사리를 오랜 시간 끓여 만든 핸드메이드 제주 푸딩","phone":"0507-1327-0064","lat":33.4059395,"lng":126.2564632,"address":"제주특별자치도 제주시 한림읍 옹포리 324-3"},
{"userID":1,"type":3,"name":"간세다리족욕카페","talk":"따뜻한 차와 함께 피로를 풀 수 있는 족욕카페","phone":"064-732-1100","lat":33.2476528,"lng":126.5583687,"address":"제주특별자치도 서귀포시 서귀동 318-23"},
{"userID":1,"type":3,"name":"희재원","talk":"감귤 타르트 만들기 체험을 즐길 수 있는 카페","phone":"064-732-8181","lat":33.2565264,"lng":126.6216782,"address":"제주특별자치도 서귀포시 하효동 967-1"},
{"userID":1,"type":3,"name":"에릭스에스프레소","talk":"맛있고 분위기도 맛있는 평점 좋은 핫한 카페","phone":"0507-1329-9642","lat":33.5213858,"lng":126.8588601,"address":"제주 제주시 구좌읍 구좌로 77 1층"},
{"userID":1,"type":3,"name":"어린왕자감귤밭","talk":"이쁜 감귤밭에서 감귤체험을 즐길수 있는 카페","phone":"0507-1335-3132","lat":33.2533039,"lng":126.2818474,"address":"제주 서귀포시 대정읍 추사로36번길 45-1"},
{"userID":1,"type":3,"name":"노고로시(갬성카페)","talk":"제주의 올레길, 제주의 고향집을 그대로 살려 편안한 분위기에서 따뜻한 커피한잔의 여유를 느낄 수 있는 카페","phone":"064-796-4683","lat":33.4236812,"lng":126.277432,"address":"제주 제주시 한림읍 대림10길 76-3"},
{"userID":1,"type":3,"name":"이익새양과점(파운드케이크맛집)","talk":"아담하고 아기자기한 인테리어의 카페안에서 다양한 파운드케이크를 맛볼 수 있는 곳","phone":"0507-1414-2343","lat":33.4073731,"lng":126.2655418,"address":"제주 제주시 한림읍 명월성로 16"},
{"userID":1,"type":3,"name":"우무2(디저트맛집)","talk":"제주 해녀가 채취한 우뭇가사리를 오랜 시간 끓여 만든 핸드메이드 제주 푸딩","phone":"010-4471-0064","lat":33.5098136,"lng":126.5233606,"address":"제주 제주시 관덕로8길 40-1"},
{"userID":1,"type":3,"name":"에밀리파크(족욕카페)","talk":"족욕체험, 초콜릿과 쿠키 만들기 체험 등을 즐길 수 있는 카페","phone":"064-783-0518","lat":33.525054,"lng":126.620611,"address":"제주 제주시 조천읍 신촌리 1615-2"},
{"userID":1,"type":3,"name":"돌토고리족욕카페(족욕카페\\)","talk":"직접 만든 당근케이크와 음료를 즐기며 따뜻하고 편안하게 친구, 가족과 오붓한 대화속에서 족욕을 즐길 수 있는 카페","phone":"064-787-9400","lat":33.325567,"lng":126.8443656,"address":"제주 제주시 한경면 저지리 2848-2"},
{"userID":1,"type":3,"name":"담앙족욕카페(족욕카페)","talk":"엄선된 한약재인 제주 본초 식물들을 활용한 족욕 테라피를 경험할 수 있는 카페","phone":"0507-1498-2848","lat":33.322759,"lng":126.2633107,"address":"제주 제주시 애월읍 고내리 1158"},
{"userID":1,"type":3,"name":"족욕카페","talk":"바다를 보면서 족욕을 즐길 수 있는 카페","phone":"0507-1439-1271","lat":33.4671376,"lng":126.3364833,"address":"제주 서귀포시 안덕면 동광리 259-3"},
{"userID":1,"type":3,"name":"양보는곳","talk":"카페 앞에 있는 양목장을 이용해볼 수 있는 테마카페","phone":"010-2098-6627","lat":33.311119,"lng":126.3525926,"address":"제주 서귀포시 신효동 1137-1"},
{"userID":1,"type":3,"name":"베케(마당이이쁜곳)","talk":"야외 정원을 둘러보며 커피 한잔까지 즐길 수 있는 뷰가 아름다운 카페","phone":"064-732-3828","lat":33.261949,"lng":126.6049246,"address":"제주 제주시 애월읍 상가북6길 13"},
{"userID":1,"type":3,"name":"카페 어떤오후","talk":"따사롭고 나른한 감성의 카페","phone":"0507-1416-1186","lat":33.4507609,"lng":126.3459974,"address":"제주 제주시 한림읍 한림로 564"},
{"userID":1,"type":3,"name":"앤트러사이트 제주한림점","talk":"실내 식물들을 보며 커피 한잔의 여유를 느낄 수 있는 카페","phone":"064-796-7991","lat":33.4077742,"lng":126.2583201,"address":"제주 제주시 한림읍 한림로4길 27 1층"},
{"userID":1,"type":3,"name":"한림과자점","talk":"달콤한 냄새가 솔솔 나는 작고 귀여운 과자점","phone":"0507-1344-5315","lat":33.4105535,"lng":126.2629111,"address":"제주 제주시 한경면 일주서로 4611"},
{"userID":1,"type":3,"name":"울트라마린","talk":"오션뷰가 멋진 모던한 스타일의 카페","phone":"064-803-0414","lat":33.3693985,"lng":126.2060462,"address":"제주 서귀포시 안덕면 신화역사로 15 오설록"},
{"userID":1,"type":3,"name":"오설록 티 뮤지엄","talk":"차와 한국 전통차 문화를 소개하고 보급하고자 개관한 국내 최초의 차 박물관","phone":"064-794-5312","lat":33.3060844,"lng":126.2893927,"address":"제주 서귀포시 안덕면 일주서로2100번길 46"},
{"userID":1,"type":3,"name":"마노르블랑","talk":"아름다운 정원을 보며 커피를 마실 수 있는 정원카페","phone":"064-794-0999","lat":33.2548104,"lng":126.2949065,"address":"제주 서귀포시 논짓물로 13"},
{"userID":1,"type":3,"name":"논짓물해수족욕카페","talk":"바다를 보며 족욕을 즐길 수 있는 제주의 이색 카페","phone":"064-738-8500","lat":33.2371361,"lng":126.387987,"address":"제주 서귀포시 일주서로 626"},
{"userID":1,"type":3,"name":"볼스카페","talk":"감귤밭이 액자가 되는 중문카페","phone":"070-7779-1981","lat":33.2529713,"lng":126.4427928,"address":"제주 제주시 애월읍 일주서로 6111"},
{"userID":1,"type":3,"name":"호박다방","talk":"제주 바다전망 예쁜 카페","phone":"064-799-0778","lat":33.456264,"lng":126.3090361,"address":"제주 제주시 애월읍 애월로 15-1"},
{"userID":1,"type":3,"name":"지금이순간카페","talk":"오션뷰가 예쁘고 분위기가 좋은 카페","phone":"010-4761-1801","lat":33.4604675,"lng":126.3109816,"address":"제주 제주시 애월읍 애월북서길 56-1"},
{"userID":1,"type":3,"name":"몽상드애월","talk":"제주 노을이 가장 가까이 위치에 있는 바다 앞 카페","phone":"010-4419-3431","lat":33.4628698,"lng":126.3092168,"address":"제주 제주시 애월읍 애월해안로 738 나동"},
{"userID":1,"type":3,"name":"달자카페","talk":"애원해안 도로가 전망 좋게 보이는 제주애월 아기자기한 카페","phone":"064-744-8877","lat":33.4835433,"lng":126.3797518,"address":"제주 제주시 국기로3길 2"},
{"userID":1,"type":3,"name":"아라파파","talk":"수제잼과 빵이 있는 제주빵집","phone":"064-725-8204","lat":33.4784521,"lng":126.4908538,"address":"제주 제주시 월랑로2길 29"},
{"userID":1,"type":3,"name":"준클라시코(르에스까르고)","talk":"빵순이라면 꼭 들러야 할 제주 3대빵집","phone":"064-748-0095","lat":33.4883854,"lng":126.4815381,"address":"제주 제주시 서광로2길 27-2"},
{"userID":1,"type":3,"name":"돌카롱 제주공항점","talk":"제주도 대표 꽃들을 컨셉으로 만든 마카롱이 유명한 곳","phone":"0507-1300-5261","lat":33.4985543,"lng":126.5135991,"address":"제주 제주시 이도1동 1789-3"},
{"userID":1,"type":2,"name":"제주애퐁당","talk":"제주 감성 가득한 핸드메이드 아이템, 인테리어 소품 등을 구매할 수 있는 곳","phone":"0507-1421-3340","lat":33.5020743,"lng":126.527953,"address":"제주특별자치도 서귀포시 강정동"},
{"userID":1,"type":2,"name":"엉또폭포(비오면 작동)","talk":"알려지지 않아 사람들의 발길이 뜸한 곳이지만 기암절벽과 천연 난대림에 둘러싸여 있어 주변 경관이 아름다운 곳","phone":"064-760-3192","lat":33.26765,"lng":126.4984,"address":"제주특별자치도 제주시 애월읍 어음리 1503"},
{"userID":1,"type":2,"name":"아르떼뮤지엄 제주","talk":"국내 최대의 몰입형 미디어 아트 뮤지엄","phone":"1899-5008","lat":33.3967678,"lng":126.3450471,"address":"제주특별자치도 서귀포시 남원읍 수망리"},
{"userID":1,"type":2,"name":"물영아리오름습지","talk":"화산 활동의 결과로 형성된 분화구 내의 습지","phone":"064-728-6200","lat":33.3692008,"lng":126.6933543,"address":"제주특별자치도 제주시 한경면 신창리 1290-3"},
{"userID":1,"type":2,"name":"신창 풍차해안","talk":"해상풍력단지가 조성되어 있어 해안도로를 따라 줄지어 서 있는 풍차를 만날 수 있는 곳","phone":"064-728-7973","lat":33.3453012,"lng":126.1775194,"address":"제주특별자치도 서귀포시 안덕면 사계리"},
{"userID":1,"type":2,"name":"사계해안","talk":"산방산과 형제섬을 즐길 수 있는 해안도로","phone":"064-760-2772","lat":33.2263917,"lng":126.3010625,"address":"제주 서귀포시 색달동"},
{"userID":1,"type":2,"name":"갯깍주상절리대","talk":"제주어로 바다 끝머리에 있는 국내 최대 규모의 주상절리 구역이다. 높이가 각기 다른 사각형, 육각형 돌기둥들이 절벽처럼 보이는 기이하고 신비로운 모습을 볼 수 있다.","phone":"x","lat":33.2414794,"lng":126.3994479,"address":"제주 서귀포시 표선면 성읍리 3229-4"},
{"userID":1,"type":2,"name":"보롬왓","talk":"제주도의 바른 먹거리를 위해 농작물을 직접 재배하고 소비자와의 간격을 줄이기 위해 연중 개방하여 자연속에서 힐링할 수 있는 관광명소","phone":"010-7362-2345","lat":33.4134949,"lng":126.7525998,"address":"제주특별자치 서귀포시 색달동"},
{"userID":1,"type":2,"name":"중문색달해수욕장(일몰은 펍에서)","talk":"네 가지 색을 띤 모래와 조화를 이루고 있는 제주도 특유의 검은 돌을 볼 수 있는 청정해수욕장","phone":"064-760-4993","lat":33.2451775,"lng":126.411496,"address":"제주 제주시 구좌읍 송당리 산66-2"},
{"userID":1,"type":2,"name":"안돌오름","talk":"화구 안사면의 골이 패인 곳에서만 유일하게 나무가 우거져 자연림의 숲을 이루고 있고 그 외 사면은 매끈한 풀밭 오름인 것이 특징","phone":"x","lat":33.4578314,"lng":126.7558689,"address":"제주 제주시 애월읍"},
{"userID":1,"type":2,"name":"족은녹고메","talk":"제주특별자치도 제주시 애월읍 유수암리와 소길리 사이에 있는 등산하기 좋은 봉우리","phone":"x","lat":33.3929168,"lng":126.4171435,"address":"제주 서귀포시 색달동 3384-4"},
{"userID":1,"type":2,"name":"엉덩물계곡","talk":"무료로 입장할 수 있으며 평지보다 유채꽃 풍경이 입처적인 특징이 있는 곳","phone":"x","lat":33.2481903,"lng":126.4132558,"address":"제주 서귀포시 색달동 산1-3"},
{"userID":1,"type":2,"name":"1100고지","talk":"제주도 서귀포시 중문동과 제주시를 연결하는 1100도로에서 가장 높은 곳에 있는 고지, 겨울철 눈이 내리면 한라산의 눈꽃이 아름다워 설경이 특히 유명하다","phone":"064-728-6200","lat":33.357935,"lng":126.4621131,"address":"제주 서귀포시 대포동"},
{"userID":1,"type":2,"name":"거린사슴전망대(별보자~)","talk":"전망대를 통해 서귀포의 앞바다에 위치한 숲섬, 범섬, 문섬 등의 아름다운 전경을 볼 수 있는 곳","phone":"x","lat":33.307592,"lng":126.454438,"address":"제주 서귀포시 성산읍 고성리 372-1"},
{"userID":1,"type":2,"name":"환상숲곶자왈공원","talk":"용암이 남긴 신비한 지형 위에서 다양한 동식물이 함꼐 살아가는 독특한 생태계가 유지되어 보존 가치가 높은 공원","phone":"064-772-2488","lat":33.3228291,"lng":126.2632257,"address":"제주 제주시 애월읍 납읍리 58"},
{"userID":1,"type":2,"name":"드르쿰다 in 성산(밤에가볼것!)","talk":"컨셉별로 나누어진 스튜디오에서 다양한 사진을 찍을 수 있고 낮엔 카페, 밤엔 펍까지 즐길 수 있는 곳","phone":"0507-1303-2197","lat":33.4445124,"lng":126.9190859,"address":"제주 제주시 한림읍 금능리"},
{"userID":1,"type":2,"name":"화조원(동물보는곳)","talk":"늘 멀리서 지켜볼 수 밖에 없었던 다양한 새들과 소형 동물들을 직접 체험할 수 있는 곳","phone":"0507-1388-9988","lat":33.4109688,"lng":126.3718941,"address":"제주 제주시 애월읍 봉성리 3608"},
{"userID":1,"type":2,"name":"금능해수욕장","talk":"투명한 맑은 물과 흰 모래와 조가비가 섞여 길게 이어진 아름다운 백사장","phone":"064-728-3983","lat":33.3893718,"lng":126.2345067,"address":"제주 제주시 조천읍 와산리 1559-18"},
{"userID":1,"type":2,"name":"선운정사(야경이이쁜곳)","talk":"절터를 은은하게 수놓는 연꽃등과 멋진 야경이 유명한 사찰","phone":"064-799-8588","lat":33.4293679,"lng":126.30715,"address":"제주 서귀포시 서홍동"},
{"userID":1,"type":2,"name":"제주조천스위스마을","talk":"화려한 컬러들로 칠해진 마을의 건물들을 따라 걸어다니며 이국적인 느낌을 느껴볼 수 있는 제주도의 관광지","phone":"064-744-6060","lat":33.4944463,"lng":126.6773028,"address":"제주 제주시 애월읍 곽지리"},
{"userID":1,"type":2,"name":"서귀포칠십리시공원주차장","talk":"넓고 푸른 잔디밭과 곳곳에 배치된 조형물, 미술관을 보며 여유롭게 산책할 수 있는 공원","phone":"x","lat":33.2471344,"lng":126.5531941,"address":"제주 서귀포시 표선면 가시리 산158"},
{"userID":1,"type":2,"name":"곽지해수욕장","talk":"해수욕장과 함께 인근의 월명사를 돌아보거나 한담휴게소에서 한림교까지 연결된 해안도로를 따라 드라이브를 하면 현무암 조각들과 절묘한 생김새의 화산절벽을 볼 수 있다","phone":"064-728-3985","lat":33.4510541,"lng":126.3054031,"address":"제주 제주시 한경면 저지리 산51"},
{"userID":1,"type":2,"name":"붉은오름","talk":"봄이 되면 오름 중턱 일대에 가득 핀 철쭉꽃과 진달래꽃의 장관을 맛볼 수 있는 명소","phone":"064-760-3481","lat":33.3753375,"lng":126.4589785,"address":"제주 제주시 한경면 고산리"},
{"userID":1,"type":2,"name":"저지오름","talk":"울창한 나무숲과 전망대를 통해 한라산, 산방산, 송악산, 이시돌오름, 금악오름, 당산봉 등 주변 오름 들을 한 눈에 볼 수 있다","phone":"064-728-7952","lat":33.3340633,"lng":126.2509839,"address":"제주 제주시 한경면 청수리 산4 청수리113-5"},
{"userID":1,"type":2,"name":"차귀도(일몰)","talk":"섬의 아름다움과 더불어 특히, 해질 무렵 노을이 지는 순간 바다와 섬과 석양이 연출하는 장관이 매우 유명한 곳","phone":"064-772-3224","lat":33.312341,"lng":126.152478,"address":"제주 제주시 애월읍 상귀리 1012"},
{"userID":1,"type":2,"name":"청수곶자왈","talk":"세계에서 유일하게 열대 북방한계 식물과 한대 남방한계 식물이 공존하는 제주의 독특한 지형, 여름 저녁이 되면 반딧불이의 빛이 만들어내는 동화 같은 신비함을 눈에 담을 수 있는 것이 특징","phone":"064-772-1303","lat":33.3013926,"lng":126.2620201,"address":"제주 제주시 아라일동 1"},
{"userID":1,"type":2,"name":"항파두리항몽유적지(유채꽃)","talk":"고려시대 몽골의 침략에 끝까지 저항했던 삼별초가 최후까지 항전하여 호국충정의 혼을 일깨울수 있는 역사유적지","phone":"064-710-6721","lat":33.4527483,"lng":126.407778,"address":"제주 서귀포시 대정읍 중산간서로 2260-15"},
{"userID":1,"type":2,"name":"제주대학교 아라캠퍼스(벚꽃보는곳)","talk":"계절별로 벚꽃길, 은행나무길 같은 아름다운 경관을 볼 수 있는 곳","phone":"064-754-2114","lat":33.457918,"lng":126.5624,"address":"제주 서귀포시 안덕면 사계리"},
{"userID":1,"type":2,"name":"노리매(감귤밭, 매화축제)","talk":"자연속에서 현대적 감성을 즐길 수 있는 자연공원","phone":"064-792-8211","lat":33.2830315,"lng":126.2874423,"address":"제주 서귀포시 안덕면 사계리 산44"},
{"userID":1,"type":2,"name":"사계리삼거리(수국)","talk":"계절마다 다양한 꽃밭길(수국, 유채꽃)을 볼 수 있는 곳","phone":"x","lat":33.234917,"lng":126.308403,"address":"제주 서귀포시 중문동 2757-10"},
{"userID":1,"type":2,"name":"형제섬","talk":"일출.일몰시 최고의 사진촬영 장소","phone":"064-760-2913","lat":33.2097576,"lng":126.3145728,"address":"제주 서귀포시 안덕면 병악로 166"},
{"userID":1,"type":2,"name":"대포해안주상절리대","talk":"자연의 신비가 주는 웅장함에 압도되는 공간","phone":"064-738-1521","lat":33.241013,"lng":126.42087,"address":"제주 서귀포시 안덕면 상천리 427"},
{"userID":1,"type":2,"name":"카멜리아힐(동백, 수국)","talk":"30년 열정과 사랑으로 제주의 자연을 담은, 동양에서 가장 큰 동백 수목원","phone":"064-792-0088","lat":33.2897889,"lng":126.3696285,"address":"제주 제주시 한림읍 산록남로 53"},
{"userID":1,"type":2,"name":"방주교회","talk":"세계적인 건축가 이타미준이 노아의 방주를 모티브로 설계한 교회로, 아름다운 건축물로 유명","phone":"064-794-0611","lat":33.305112,"lng":126.387455,"address":"제주 제주시 한경면 청수리"},
{"userID":1,"type":2,"name":"성이시돌목장","talk":"아름다운 풍경이 있는 목장","phone":"064-796-0396","lat":33.347074,"lng":126.327213,"address":"제주 제주시 애월읍 하가리 1569-2"},
{"userID":1,"type":2,"name":"연화못","talk":"제주의 숨은 비경 연화못","phone":"x","lat":33.29425,"lng":126.233313,"address":"제주 제주시 애월읍 하가리 1580-1"},
{"userID":1,"type":2,"name":"연화지(8월)","talk":"연꽃, 수련, 소리쟁이, 쇠무릎 등과 각종 수생 식물을 비록하여 어류 등 다양한 종을 볼수 있는 연못","phone":"064-740-6000","lat":33.4547899,"lng":126.3474578,"address":"제주 서귀포시 1100로 506"},
{"userID":1,"type":2,"name":"더럭초등학교","talk":"다양한 색채가 아름다워 많은 이들이 포토 스팟으로 찾고 있지만 관광지가 아닌 학교를 지역사회와 함께한다는 취지로 개방한 만큼 관람매너가 필수","phone":"064-797-7200","lat":33.4536332,"lng":126.3454814,"address":"제주 제주시 도리로 20"},
{"userID":1,"type":2,"name":"홍가시나무길","talk":"붉은 홍가시나무가 아름답게 피어 장관을 이룬다","phone":"x","lat":33.2856263,"lng":126.4593975,"address":"제주 제주시 연동 산134-1"},
{"userID":1,"type":2,"name":"이호테우해수욕장(일몰)","talk":"붉은 조랑말과 흰 조랑말의 극명하게 대조되는 색감이 이국적인 풍경을 선사하는 해변","phone":"064-728-3994","lat":33.4976201,"lng":126.4525332,"address":"제주 제주시 선돌목동길 60 별빛누리공원"},
{"userID":1,"type":2,"name":"어승생한울누리공원","talk":"한라산 바로 밑에 자리하고 있는 수목장","phone":"064-728-2565","lat":33.4195646,"lng":126.5002288,"address":"제주특별자치도 제주시 삼도이동 857-1"},
{"userID":1,"type":2,"name":"제주별빛누리공원(야경)","talk":"천체탐구와 천문학습의 장으로 청소년들에게 무한한 꿈과 희망을 심어줄 과학문화 공간","phone":"064-728-8900","lat":33.4448303,"lng":126.5492133,"address":"제주특별자치도 제주시 일도2동 370"},
{"userID":1,"type":1,"name":"송림반점","talk":"정겨운 느낌이 물씬나는 중국집","phone":"064-722-4229","lat":33.5124492,"lng":126.5197118,"address":"제주특별자치도 서귀포시 토평동 1290"},
{"userID":1,"type":1,"name":"뽕이네각재기","talk":"각재기국, 해물뚝배기, 고등어구이가 대표메뉴인 제주 향토 음식점","phone":"064-722-5193","lat":33.508732,"lng":126.542309,"address":"제주특별자치도 서귀포시 강정동 114-3"},
{"userID":1,"type":1,"name":"동성식당","talk":"돼지 두루치기가 맛있는 동성식당","phone":"064-733-6874","lat":33.2676864,"lng":126.5892158,"address":"제주특별자치도 서귀포시 서귀동 667-11"},
{"userID":1,"type":3,"name":"뜻밖의발견","talk":"제주에서 찾은 보물 카페","phone":"0507-1334-2091","lat":33.2598586,"lng":126.5098254,"address":"제주특별자치도 서귀포시 상효동 1301-10"},
{"userID":1,"type":1,"name":"태성흑돈","talk":"제주 흑돼지 구이가 유명한 맛집","phone":"064-762-2848","lat":33.2407411,"lng":126.5617861,"address":"제주특별자치도 서귀포시 안덕면 창천리 153-56"},
{"userID":1,"type":1,"name":"모녀의부엌","talk":"개인적 제주의 보물같은 식당","phone":"064-733-0011","lat":33.2932968,"lng":126.5948638,"address":"제주특별자치도 서귀포시 서귀동 340"},
{"userID":1,"type":1,"name":"달팽이식당","talk":"직접 농사지은 콩으로 만든 청국장과 석쇠불고기","phone":"064-792-7574","lat":33.2659456,"lng":126.3718946,"address":"제주특별자치도 제주시 이도일동 1687-8"},
{"userID":1,"type":1,"name":"서귀포매일올레시장","talk":"다양한 문화행사와 축제를 통해 관광객들의 큰 호응을 얻고 있으며 지역 특산품인 감귤이나 한라봉, 옥돔 등을 주로 판매한다","phone":"064-762-1949","lat":33.2494039,"lng":126.5639289,"address":"제주 제주시 한림읍 한림중앙로 23"},
{"userID":1,"type":1,"name":"신화정스시","talk":"저렴한 가격으로 맛볼 수 있는 초밥집","phone":"0507-1309-4297","lat":33.5031745,"lng":126.5264777,"address":"제주 제주시 조천읍 선진길 26"},
{"userID":1,"type":1,"name":"빨간집","talk":"오돌뼈, 닭발, 등갈비 등 술 한잔 마시며 먹기 좋은 맛집","phone":"064-796-1070","lat":33.4127332,"lng":126.2649978,"address":"제주 서귀포시 성산읍 동류암로 41"},
{"userID":1,"type":1,"name":"상춘재","talk":"청와대 한식전문 요리사 출신 주인장이 만들어내는 멍개비빔밥이 유명한 맛집, 전통 한식집을 연상시키는 세련된 분위기가 특징","phone":"064-725-1557","lat":33.458678,"lng":126.7047427,"address":"제주 제주시 한경면 청수동8길 3"},
{"userID":1,"type":1,"name":"맛나식당(갈치조림 예약필수)","talk":"갈치조림이 맛있는 맛나식당","phone":"064-782-4771","lat":33.4485941,"lng":126.9160349,"address":"제주 제주시 한경면 고산로8길 21-15"},
{"userID":1,"type":1,"name":"양가형제(햄버거)","talk":"제주 수제버거와 크래프트비어를 맛볼 수 있는 미국식 수제버거 레스토랑","phone":"0507-1405-7734","lat":33.3074822,"lng":126.253887,"address":"제주 제주시 한림읍 옹포1길 24"},
{"userID":1,"type":1,"name":"또띠아에싸먹는흑돼지","talk":"제주스럽고 감성터지는 장소에서 연탄불에 구운 신선한 흑돼지를 맛볼수 있는 곳","phone":"064-772-5895","lat":33.308665,"lng":126.1801519,"address":"제주 제주시 구좌읍 해맞이해안로 1708"},
{"userID":1,"type":1,"name":"옹포바다횟집","talk":"젊은 감각의 오너셰프가 모든 밑반찬을 수제로 만들어 제공하는 횟집","phone":"064-796-1323","lat":33.4038518,"lng":126.2517055,"address":"제주 제주시 무근성길 20"},
{"userID":1,"type":1,"name":"살찐고등어","talk":"제주 흑돼지를 사용해 만든 돈가스가 유명한 맛집","phone":"064-783-9279","lat":33.526578,"lng":126.884752,"address":"제주 제주시 아란5길 31-2"},
{"userID":1,"type":1,"name":"자매네(기사식당)","talk":"따뜻한 아침식사를 즐길수 있는 곳","phone":"064-726-6009","lat":33.5164667,"lng":126.5191,"address":"제주 제주시 과원북4길 61"},
{"userID":1,"type":1,"name":"바삭돈가스 아라점","talk":"재료소진시 문을닫는 돈까스 찐맛집 바삭돈까스","phone":"064-726-9800","lat":33.4738027,"lng":126.543998,"address":"제주 제주시 구좌읍 월정7길 58"},
{"userID":1,"type":1,"name":"바삭돈가스","talk":"재료소진시 문을닫는 돈까스 찐맛집 바삭돈까스","phone":"064-748-6555","lat":33.4812184,"lng":126.488223,"address":"제주 서귀포시 대정읍 추사로 60"},
{"userID":1,"type":1,"name":"멘도롱돈까스","talk":"포방터 돈가스 서귀포로 왔는데 왜 가보지 못하나 제주도 돈가스 맛집","phone":"064-783-5592","lat":33.5554384,"lng":126.7959076,"address":"제주 제주시 애월읍 고내리 1039-4"},
{"userID":1,"type":1,"name":"흑돼지국밥","talk":"처음 제주방언 제대로 들은 도민맛집","phone":"064-792-0260","lat":33.2500579,"lng":126.2766955,"address":"제주 제주시 은수길 65"},
{"userID":1,"type":1,"name":"만지식당","talk":"조용히 제주를 느끼며 여유롭게 식사를 즐길 수 있는 아늑한 느낌의 작은 식당","phone":"0507-1415-1812","lat":33.4633237,"lng":126.339068,"address":"제주 제주시 한림읍 협재1길 11"},
{"userID":1,"type":2,"name":"수목원길 야시장(야시장)","talk":"다양한 볼거리를 즐기며 먹거리를 맛볼 수 있는 곳","phone":"064-742-3700","lat":33.4715032,"lng":126.4880739,"address":"제주 제주시 한림읍 한림로 475 제주하늘집"},
{"userID":1,"type":1,"name":"협재수우동(수우동)","talk":"수요미식회에서도 소개된 수우동, 자작냉우동이 유명한 식당","phone":"064-796-5830","lat":33.3966549,"lng":126.2424591,"address":"제주 제주시 한경면 일주서로 4533-19"},
{"userID":1,"type":1,"name":"제주하늘집","talk":"제주협재흑돼지맛집 제주돌담집 바다를 보면서 식사할 수 있는곳","phone":"0507-1306-9669","lat":33.4019872,"lng":126.2509961,"address":"제주 제주시 한경면 판포1길 16"},
{"userID":1,"type":1,"name":"돌담너머바다","talk":"현무암 치킨과 돔베스테이크 등 제주 느낌이 물씬나는 메뉴들을 대표메뉴로 팔고 있는 분위기 있는 레스토랑","phone":"0507-1402-5527","lat":33.3655329,"lng":126.1985574,"address":"제주 서귀포시 대정읍 가파로67번길 95-2 올레길 식당민박"},
{"userID":1,"type":1,"name":"바다를본돼지","talk":"한경면 바다 석양이 보이는 흑돼지 맛집","phone":"0507-1385-5536","lat":33.3656618,"lng":126.1979064,"address":"제주 제주시 한경면 고산로 35"},
{"userID":1,"type":1,"name":"올레길식당","talk":"제주도 느낌이 물씬나는 보말칼국수가 맛있는 집","phone":"064-792-7575","lat":33.1735167,"lng":126.2691889,"address":"제주 제주시 한경면 청수로 218"},
{"userID":1,"type":1,"name":"제주돔베막국수","talk":"고산 현지인 추천 입에서 녹는 돔베고기","phone":"064-773-2147","lat":33.304165,"lng":126.179394,"address":"제주 서귀포시 대정읍 일주서로 2215 청루식당"},
{"userID":1,"type":1,"name":"피자굽는돌하르방","talk":"제주치즈가 맛있는 오설록 근처 맛집","phone":"064-773-7273","lat":33.3047952,"lng":126.2558488,"address":"제주 서귀포시 안덕면 중산간서로 1957"},
{"userID":1,"type":1,"name":"청루봉평메밀막국수전문점","talk":"제주도민이 아는 곳 첨루 봉평 메밀막국수","phone":"064-792-1238","lat":33.2490166,"lng":126.2813757,"address":"제주 제주시 애월읍 애월로1길 24-3"},
{"userID":1,"type":1,"name":"도희네칼국수(구 성산수구레국밥)","talk":"제일 맛있는 성산수구레국밥을 맛볼 수 있는 식당","phone":"0507-1303-7928","lat":33.28989,"lng":126.314468,"address":"제주 제주시 애월읍 가문동길 41-2"},
{"userID":1,"type":1,"name":"애월은혜전복","talk":"전복돌솥밥, 전복물회, 전복죽, 전복라면 등을 대표메뉴로 파는 전복 전문 식당","phone":"064-799-9060","lat":33.4629905,"lng":126.3102132,"address":"제주 제주시 애월읍 애월해안로 454-5"},
{"userID":1,"type":1,"name":"닻(딱새우)","talk":"비주얼갑 통문어튀김 애월 늦게까지 하는 집","phone":"0507-1374-2154","lat":33.4860623,"lng":126.3920278,"address":"제주 제주시 애월읍 신엄9길 2"},
{"userID":1,"type":1,"name":"애월찜","talk":"전복낙지 올라간 갈비찜이 유명한 맛집","phone":"0507-1403-7496","lat":33.4765479,"lng":126.3542512,"address":"제주 제주시 애월읍 하귀14길 11-1"},
{"userID":1,"type":1,"name":"구이사이","talk":"흑돼지가 맛있는 애월흑돼지맛집","phone":"0507-1437-9242","lat":33.4722073,"lng":126.3684929,"address":"제주 제주시 신성로 104 1층"},
{"userID":1,"type":1,"name":"신의한모","talk":"이효리와 김재우가 추천하는 애월 두부요리","phone":"064-712-9642","lat":33.4854992,"lng":126.4078906,"address":"제주 제주시 연문2길 18"},
{"userID":1,"type":1,"name":"코코분식","talk":"제주도에서 칼국수로 이름난 제주시 도민 맛집","phone":"064-751-1118","lat":33.4967963,"lng":126.529996,"address":"제주 제주시 공설로 27-1"},
{"userID":1,"type":1,"name":"장수물식당","talk":"대천왕에 나온 백종원이 반했다던 그 고기국수","phone":"064-749-0367","lat":33.491883,"lng":126.49857,"address":"제주 제주시 동광로1길 6"},
{"userID":1,"type":1,"name":"순희뽀글이정식","talk":"정갈한 백반이 맛있는 가성비 맛집","phone":"064-755-7441","lat":33.4976887,"lng":126.5171929,"address":"제주 제주시 임항로 55-4"},
{"userID":1,"type":1,"name":"돼지구이연구소","talk":"제육볶음, 김치찌개 딱 두가지 메뉴로 승부보는 맛집","phone":"064-755-9209","lat":33.5016697,"lng":126.5294314,"address":"제주 제주시 탑동로 144"},
{"userID":1,"type":1,"name":"가자우리집","talk":"갈치조림, 고등어조림이 대표메뉴인 가정식 백반집","phone":"064-722-0642","lat":33.51695,"lng":126.5315,"address":"제주 제주시 무근성7길 21 제주시 새우리"},
{"userID":1,"type":1,"name":"태광식당","talk":"한치&돼지고기 주물럭이 맛있는 밥집","phone":"064-751-1071","lat":33.512667,"lng":126.518713,"address":"제주 서귀포시 일주동로 8143 아서원"}]